{"type":"FeatureCollection","features":[{"type":"Feature","properties":{"marker-color":"#7e7e7e","marker-size":"medium","marker-symbol":"","Name":"Uisneach"},"geometry":{"type":"Point","coordinates":[-7.5626,53.4903]}},{"type":"Feature","properties":{"marker-color":"#7e7e7e","marker-size":"medium","marker-symbol":"","Name":"Cairn D Loughcrew"},"geometry":{"type":"Point","coordinates":[-7.1363,53.7424]}},{"type":"Feature","properties":{"marker-color":"#7e7e7e","marker-size":"medium","marker-symbol":"","Name":"Keadeen"},"geometry":{"type":"Point","coordinates":[-6.5818,52.9511]}},{"type":"Feature","properties":{"marker-color":"#7e7e7e","marker-size":"medium","marker-symbol":"","Name":"Slievenamon"},"geometry":{"type":"Point","coordinates":[-7.5618,52.4277]}},{"type":"Feature","properties":{"marker-color":"#7e7e7e","marker-size":"medium","marker-symbol":"","Name":"Brewel Hill"},"geometry":{"type":"Point","coordinates":[-6.7587,53.0558]}},{"type":"Feature","properties":{"marker-color":"#7e7e7e","marker-size":"medium","marker-symbol":"","Name":"Blackrock (Lugnagun)"},"geometry":{"type":"Point","coordinates":[-6.4902,53.155]}},{"type":"Feature","properties":{"marker-color":"#7e7e7e","marker-size":"medium","marker-symbol":"","Name":"Ballyoskill"},"geometry":{"type":"Point","coordinates":[-7.2971,52.8374]}},{"type":"Feature","properties":{"marker-color":"#7e7e7e","marker-size":"medium","marker-symbol":"","Name":"Slievebawn"},"geometry":{"type":"Point","coordinates":[-6.8096,52.6389]}},{"type":"Feature","properties":{"marker-color":"#7e7e7e","marker-size":"medium","marker-symbol":"","Name":"Mt. Leinster"},"geometry":{"type":"Point","coordinates":[-6.7803,52.6183]}},{"type":"Feature","properties":{"marker-color":"#7e7e7e","marker-size":"medium","marker-symbol":"","Name":"Coolasnaghta"},"geometry":{"type":"Point","coordinates":[-6.785227,52.634703]}},{"type":"Feature","properties":{"marker-color":"#7e7e7e","marker-size":"medium","marker-symbol":"","Name":"Seefingan"},"geometry":{"type":"Point","coordinates":[-6.378282,53.19271]}},{"type":"Feature","properties":{"marker-color":"#7e7e7e","marker-size":"medium","marker-symbol":"","Name":"Woodtown"},"geometry":{"type":"Point","coordinates":[-6.3229268,53.258411]}},{"type":"Feature","properties":{"marker-color":"#7e7e7e","marker-size":"medium","marker-symbol":"","Name":"Newgrange"},"geometry":{"type":"Point","coordinates":[-6.4775347,53.694527]}},{"type":"Feature","properties":{"marker-color":"#7e7e7e","marker-size":"medium","marker-symbol":"","Name":"Hill of Tara"},"geometry":{"type":"Point","coordinates":[-6.6117,53.5795]}},{"type":"Feature","properties":{"marker-color":"#7e7e7e","marker-size":"medium","marker-symbol":"","Name":"Patrickstown"},"geometry":{"type":"Point","coordinates":[-7.0925,53.748]}},{"type":"Feature","properties":{"marker-color":"#7e7e7e","marker-size":"medium","marker-symbol":"","Name":"Knockaine1"},"geometry":{"type":"Point","coordinates":[-8.4764993,52.479081]}},{"type":"Feature","properties":{"marker-color":"#7e7e7e","marker-size":"medium","marker-symbol":"","Name":"Knockaine2"},"geometry":{"type":"Point","coordinates":[-8.4897279,52.478379]}},{"type":"Feature","properties":{},"geometry":{"type":"Point","coordinates":[-9.7521686,52.248771]}}]}